{"code":200,"pageCount":1,"shopList":[{"distance":343568,"phone":"72745334","address":"XXX路XXX弄86704357号","businessHours":"10:00--21:00","name":"霖上海味道","power":45},{"distance":344347,"phone":"14182642","address":"XXX路XXX弄51369340号","businessHours":"12:00-22:00","name":"洋葱餐厅","power":30},{"distance":346014,"phone":"51772056","address":"XXX路XXX弄31044690号","businessHours":"11:00-22:00","name":"霖上海味道","power":50},{"distance":346014,"phone":"31167517","address":"XXX路XXX弄32847938号","businessHours":"11:00-22:00","name":"小巴辣子川湘菜餐厅","power":50},{"distance":347527,"phone":"45636530","address":"XXX路XXX弄26368033号","businessHours":"10:00 – 22:00","name":"小巴辣子川湘菜餐厅","power":40},{"distance":349081,"phone":"57801134","address":"XXX路XXX弄67118578号","businessHours":"10:00 – 22:00","name":"洋葱餐厅","power":35},{"distance":350281,"phone":"4483090","address":"XXX路XXX弄26909576号","businessHours":"10:00 – 22:00","name":"洋葱餐厅","power":40},{"distance":353476,"phone":"45398370","address":"XXX路XXX弄48144868号","businessHours":"10:00 – 22:00","name":"小巴辣子川湘菜餐厅","power":40},{"distance":353476,"phone":"61977491","address":"XXX路XXX弄39564518号","businessHours":"10:00 – 22:00","name":"洋葱餐厅","power":50},{"distance":353520,"phone":"48623391","address":"XXX路XXX弄37181648号","businessHours":"10:00-22:00","name":"霖上海味道","power":45},{"distance":353937,"phone":"55534084","address":"XXX路XXX弄25888676号","businessHours":"10:00 – 22:00","name":"洋葱餐厅","power":35},{"distance":353937,"phone":"25351367","address":"XXX路XXX弄54012865号","businessHours":"10:00 – 22:00","name":"小巴辣子川湘菜餐厅","power":40},{"distance":353937,"phone":"94177773","address":"XXX路XXX弄59525589号","businessHours":"11:00-22:30","name":"霖上海味道","power":45},{"distance":354035,"phone":"98089162","address":"XXX路XXX弄28122832号","businessHours":"9:00 – 21:00","name":"小巴辣子川湘菜餐厅","power":40},{"distance":354071,"phone":"64762388","address":"XXX路XXX弄8138734号","businessHours":"9:00 – 21:00","name":"洋葱餐厅","power":40},{"distance":357205,"phone":"36304624","address":"XXX路XXX弄42478112号","businessHours":"10:00 – 22:00","name":"小巴辣子川湘菜餐厅","power":40},{"distance":357594,"phone":"15646014","address":"XXX路XXX弄83209284号","businessHours":"10:00-22:00","name":"洋葱餐厅","power":40},{"distance":357741,"phone":"85275046","address":"XXX路XXX弄81153990号","businessHours":"","name":"霖上海味道","power":40},{"distance":359191,"phone":"87149054","address":"XXX路XXX弄56114415号","businessHours":"10：:0-22:00","name":"洋葱餐厅","power":45},{"distance":359191,"phone":"76056188","address":"XXX路XXX弄38113441号","businessHours":"10:00-22:00","name":"霖上海味道","power":45},{"distance":359191,"phone":"21204319","address":"XXX路XXX弄72440294号","businessHours":"10：00-22:00","name":"小巴辣子川湘菜餐厅","power":45},{"distance":359534,"phone":"72750404","address":"XXX路XXX弄63414947号","businessHours":"11:00-22:30","name":"霖上海味道","power":45},{"distance":359540,"phone":"81522430","address":"XXX路XXX弄26981355号","businessHours":"10:00 – 22:00","name":"洋葱餐厅","power":35}]}